timestamp,roll,pitch,yaw,motor1,motor2,motor3,motor4
0.000,0.01,1.48,0.02,52.16,51.81,57.78,57.95
0.020,0.09,1.57,-0.07,52.19,51.38,57.60,58.16
0.040,0.29,1.51,-0.06,52.59,51.64,57.82,58.48
0.060,0.21,1.46,0.04,52.82,51.79,57.23,58.03
0.080,0.47,1.60,-0.01,52.99,50.48,57.34,59.14
0.100,0.49,1.70,0.01,52.64,50.57,57.15,59.59
0.120,0.79,1.39,0.05,53.65,50.68,56.03,59.25
0.140,0.83,1.39,0.03,54.13,50.85,56.12,59.23
0.160,0.82,1.44,0.10,53.86,50.88,55.98,60.04
0.180,0.84,1.51,0.04,53.88,50.49,56.21,59.96
0.200,1.25,1.40,0.09,54.55,49.81,55.44,60.54
0.220,1.31,1.23,0.18,55.19,50.25,54.82,60.19
0.240,1.46,1.35,0.14,55.10,49.60,55.08,60.74
0.260,1.36,1.32,0.16,54.56,49.68,54.83,60.62
0.280,1.50,1.23,0.03,55.61,49.66,54.50,60.62
0.300,1.66,1.39,0.13,55.20,49.04,54.33,61.20
0.320,1.68,1.17,0.13,56.04,49.44,53.97,60.93
0.340,1.90,1.22,0.23,56.01,48.77,53.40,61.61
0.360,1.83,1.25,0.14,56.05,48.89,53.88,61.05
0.380,1.83,1.17,0.23,56.19,49.38,53.46,61.35
0.400,1.98,1.23,0.14,56.24,48.84,53.41,61.40
0.420,1.81,0.97,0.13,56.51,49.72,53.38,60.87
0.440,1.82,1.22,0.22,56.13,49.30,53.56,61.55
0.460,2.00,1.01,0.31,56.65,49.33,52.40,61.67
0.480,1.88,0.97,0.28,56.77,49.59,52.99,60.64
0.500,2.08,0.95,0.23,56.96,48.94,52.92,61.52
0.520,1.91,0.81,0.37,56.48,49.55,52.48,60.72
0.540,1.91,0.82,0.25,56.69,49.81,52.82,60.91
0.560,2.07,0.50,0.38,57.87,50.18,51.52,60.57
0.580,1.90,0.63,0.30,57.03,49.95,52.12,59.87
0.600,1.95,0.46,0.30,57.69,50.79,51.75,60.02
0.620,1.99,0.58,0.27,58.00,49.63,51.96,59.81
0.640,1.77,0.65,0.26,57.11,50.64,52.25,60.05
0.660,1.66,0.39,0.39,57.35,51.12,52.15,59.49
0.680,1.80,0.41,0.35,57.53,50.74,51.80,59.74
0.700,1.66,0.57,0.26,56.98,50.96,52.27,59.83
0.720,1.62,0.15,0.35,57.71,51.51,51.82,58.83
0.740,1.36,0.10,0.46,57.04,52.63,51.83,58.58
0.760,1.28,0.26,0.37,56.67,52.58,52.67,58.39
0.780,1.18,0.17,0.40,56.38,52.53,52.49,58.28
0.800,1.21,0.04,0.39,57.21,53.15,52.38,57.77
0.820,0.96,-0.03,0.43,56.25,53.63,52.78,57.56
0.840,0.98,0.05,0.47,56.35,53.43,52.39,57.64
0.860,0.94,-0.18,0.44,57.11,53.78,52.34,56.80
0.880,0.73,-0.09,0.47,56.60,54.14,53.04,56.65
0.900,0.67,-0.20,0.55,56.37,54.54,53.17,56.78
0.920,0.42,-0.24,0.46,55.80,55.13,53.12,55.75
0.940,0.34,-0.37,0.45,56.41,55.70,53.14,55.39
0.960,0.31,-0.32,0.43,55.97,55.33,53.52,55.03
0.980,-0.02,-0.49,0.45,55.31,56.61,53.02,54.48
1.000,-0.04,-0.51,0.47,55.65,56.37,53.55,54.52
1.020,-0.13,-0.32,0.48,55.03,56.56,53.94,54.39
1.040,-0.25,-0.61,0.59,55.36,57.38,53.63,53.82
1.060,-0.33,-0.70,0.51,55.18,57.64,53.33,53.37
1.080,-0.68,-0.86,0.48,54.56,58.54,54.32,52.64
1.100,-0.48,-0.86,0.70,55.08,58.41,53.74,53.12
1.120,-0.63,-0.77,0.53,54.95,58.25,53.94,52.54
1.140,-1.06,-0.76,0.59,53.99,59.29,55.22,52.09
1.160,-1.20,-0.87,0.69,53.77,59.88,54.67,51.88
1.180,-1.27,-0.92,0.60,53.61,60.54,55.05,51.30
1.200,-1.16,-1.01,0.57,53.71,59.97,54.62,51.22
1.220,-1.34,-0.73,0.62,53.26,59.67,55.84,51.38
1.240,-1.34,-0.92,0.72,53.44,60.04,55.32,51.67
1.260,-1.56,-1.03,0.72,52.98,60.70,55.00,50.67
1.280,-1.45,-0.95,0.64,53.32,60.22,55.44,50.46
1.300,-1.71,-1.03,0.62,52.96,61.13,56.12,50.21
1.320,-1.56,-1.17,0.68,53.49,61.13,54.86,50.23
1.340,-1.73,-1.19,0.61,53.31,61.73,55.16,49.91
1.360,-1.74,-1.35,0.57,53.59,62.06,55.22,49.41
1.380,-1.67,-1.22,0.67,53.35,61.25,55.38,49.76
1.400,-1.90,-1.36,0.65,53.19,62.18,55.38,49.21
1.420,-1.85,-1.23,0.71,52.84,61.32,55.83,49.75
1.440,-1.92,-1.34,0.75,53.48,62.50,55.55,48.86
1.460,-2.18,-1.42,0.88,52.46,63.31,55.63,48.89
1.480,-1.95,-1.47,0.72,53.37,62.39,55.42,48.62
1.500,-1.88,-1.39,0.77,53.15,62.64,55.28,49.79
1.520,-2.25,-1.35,0.71,52.59,63.05,55.93,48.24
1.540,-1.98,-1.36,0.75,53.23,62.70,55.35,49.17
1.560,-2.03,-1.41,0.74,52.80,62.74,55.95,48.71
1.580,-2.03,-1.63,0.84,53.20,63.17,54.94,48.71
1.600,-1.87,-1.54,0.85,53.45,62.36,54.65,48.91
1.620,-1.95,-1.62,0.85,53.59,62.83,55.08,48.85
1.640,-1.88,-1.53,0.81,53.76,62.33,55.10,49.12
1.660,-1.68,-1.39,0.81,53.39,61.89,54.80,49.72
1.680,-1.58,-1.55,0.85,53.90,61.94,54.10,49.49
1.700,-1.63,-1.57,0.94,53.98,62.14,54.08,49.90
1.720,-1.52,-1.51,0.85,54.05,61.79,54.41,49.67
1.740,-1.44,-1.38,0.90,53.93,61.92,54.03,50.22
1.760,-1.60,-1.52,0.94,54.15,62.13,54.05,49.19
1.780,-1.26,-1.47,0.90,54.62,61.33,53.77,50.28
1.800,-1.17,-1.57,0.88,54.76,61.12,53.18,50.37
1.820,-1.11,-1.48,0.85,54.71,61.05,53.60,50.78
1.840,-0.87,-1.41,0.89,54.82,60.54,53.26,51.39
1.860,-0.76,-1.43,1.00,55.24,60.27,52.39,51.24
1.880,-0.73,-1.35,0.97,55.19,59.95,52.63,51.68
1.900,-0.67,-1.30,1.00,55.19,59.93,52.40,52.21
1.920,-0.30,-1.47,1.02,56.20,59.95,51.67,52.50
1.940,-0.34,-1.24,1.11,55.41,59.36,52.26,53.21
1.960,-0.33,-1.50,0.95,56.45,59.58,51.98,52.24
1.980,-0.15,-1.25,0.94,56.10,58.54,51.91,52.90
2.000,0.18,-1.03,0.98,56.79,57.64,51.92,54.55
2.020,0.04,-1.26,1.03,56.89,58.70,51.67,53.54
2.040,0.13,-1.20,0.94,56.80,57.93,51.51,53.86
2.060,0.39,-1.16,1.10,56.89,57.64,50.71,54.48
2.080,0.45,-0.96,1.04,56.69,56.73,51.14,55.00
2.100,0.68,-0.99,1.03,57.35,56.85,50.45,55.55
2.120,0.88,-1.00,0.98,57.73,56.05,50.57,55.70
2.140,0.97,-0.87,1.10,57.69,55.91,50.34,56.40
2.160,1.10,-1.03,1.15,58.03,56.42,49.46,56.04
2.180,1.16,-0.91,1.11,57.93,55.21,49.79,56.72
2.200,1.20,-0.82,1.05,58.32,54.82,50.09,56.99
2.220,1.23,-1.01,1.07,58.70,55.69,49.47,56.76
2.240,1.40,-0.84,1.08,58.55,55.14,49.23,56.85
2.260,1.59,-0.49,1.15,58.05,53.89,50.03,58.26
2.280,1.64,-0.58,1.14,58.48,53.89,49.15,58.03
2.300,1.50,-0.43,1.12,57.41,54.21,50.14,58.15
2.320,1.74,-0.42,1.13,58.26,53.73,49.48,58.48
2.340,1.61,-0.40,1.20,57.79,53.26,49.68,58.62
2.360,1.72,-0.21,1.20,57.54,53.14,50.05,59.37
2.380,1.89,-0.33,1.20,58.18,53.01,49.53,59.45
2.400,1.98,-0.56,1.23,59.34,53.49,48.70,59.18
2.420,1.89,-0.07,1.16,57.72,52.41,49.64,59.64
2.440,2.14,-0.19,1.22,58.39,52.29,49.36,59.96
2.460,1.91,-0.02,1.16,57.15,52.19,50.26,60.32
2.480,1.93,-0.09,1.21,57.96,52.29,49.84,59.86
2.500,2.01,-0.00,1.33,57.66,52.63,49.72,60.33
2.520,1.99,0.01,1.30,57.31,52.28,49.99,59.83
2.540,1.92,0.27,1.27,56.92,51.78,50.44,60.90
2.560,1.97,0.20,1.36,56.97,52.11,49.86,61.05
2.580,1.96,0.32,1.27,56.79,51.56,50.73,60.94
2.600,1.80,0.38,1.30,56.57,52.40,50.90,60.60
2.620,1.93,0.48,1.28,56.67,51.48,50.82,61.46
2.640,1.72,0.62,1.34,55.98,51.34,51.24,61.02
2.660,1.66,0.43,1.35,56.17,52.44,50.96,60.69
2.680,1.62,0.49,1.37,55.88,51.95,51.53,60.64
2.700,1.72,0.49,1.39,56.08,51.91,51.21,60.51
2.720,1.41,0.56,1.34,55.67,52.43,51.90,60.24
2.740,1.29,0.60,1.46,54.76,52.52,52.12,60.15
2.760,1.51,0.60,1.44,55.36,51.91,51.79,60.70
2.780,1.31,0.88,1.41,54.67,51.85,53.05,60.51
2.800,1.08,0.70,1.34,54.27,52.86,52.97,60.10
2.820,0.95,0.83,1.35,53.68,52.92,53.52,60.18
2.840,0.97,0.73,1.42,53.79,52.94,53.26,59.81
2.860,0.96,1.05,1.50,53.32,52.37,54.16,60.27
2.880,0.64,1.30,1.42,52.28,52.35,54.95,60.10
2.900,0.63,0.90,1.44,53.54,53.30,54.14,59.58
2.920,0.47,1.13,1.55,52.00,53.84,54.56,60.05
2.940,0.45,1.09,1.48,52.09,53.43,54.71,59.68
2.960,0.37,1.23,1.48,51.76,53.16,55.26,59.83
2.980,0.03,1.25,1.56,50.88,54.04,56.04,59.10
3.000,-0.11,1.24,1.48,50.70,54.28,55.81,58.61
3.020,-0.15,1.25,1.48,50.69,54.42,56.52,58.66
3.040,-0.28,1.29,1.58,50.12,54.80,56.46,58.49
3.060,-0.52,1.24,1.50,49.98,55.28,56.88,57.62
3.080,-0.59,1.29,1.48,49.68,54.93,57.32,57.71
3.100,-0.65,1.34,1.52,49.68,55.19,57.19,58.11
3.120,-0.79,1.40,1.52,48.95,55.46,57.75,57.81
3.140,-0.80,1.58,1.63,48.69,55.12,57.94,58.10
3.160,-1.03,1.22,1.52,48.92,56.31,57.90,56.66
3.180,-1.17,1.52,1.61,47.99,56.01,59.07,57.65
3.200,-1.11,1.34,1.57,48.48,56.19,58.36,56.92
3.220,-1.34,1.46,1.60,47.90,56.36,59.03,57.33
3.240,-1.26,1.51,1.67,48.02,56.39,58.98,56.81
3.260,-1.56,1.33,1.63,47.49,57.32,58.95,56.31
3.280,-1.57,1.67,1.61,46.86,56.46,59.73,56.79
3.300,-1.49,1.42,1.61,47.52,56.97,58.98,56.53
3.320,-1.43,1.58,1.66,47.06,56.14,59.13,57.03
3.340,-1.63,1.68,1.62,47.23,56.37,60.04,56.60
3.360,-1.94,1.64,1.73,46.11,57.41,60.63,56.13
3.380,-1.82,1.52,1.74,46.71,57.49,60.00,55.85
3.400,-2.00,1.48,1.77,45.91,57.78,59.92,55.72
3.420,-1.86,1.50,1.73,46.66,57.85,60.45,55.96
3.440,-2.07,1.31,1.71,46.56,58.45,59.76,55.29
3.460,-1.93,1.53,1.76,46.31,57.33,60.29,56.08
3.480,-2.01,1.49,1.70,46.07,57.63,60.60,55.75
3.500,-2.14,1.46,1.78,45.70,58.12,60.37,55.50
3.520,-2.10,1.48,1.76,46.51,58.29,60.64,55.61
3.540,-2.06,1.40,1.76,46.49,57.95,60.14,55.40
3.560,-1.92,1.35,1.82,47.07,57.82,59.64,55.42
3.580,-1.94,1.18,1.88,46.97,58.35,59.02,55.06
3.600,-1.81,1.46,1.81,47.10,57.75,59.95,56.14
3.620,-1.74,1.40,1.82,46.77,57.55,59.54,56.24
3.640,-1.89,1.42,1.85,46.45,57.54,59.87,56.06
3.660,-1.66,1.10,1.81,47.66,57.67,58.79,55.85
3.680,-1.73,1.16,1.81,47.25,57.86,59.18,55.91
3.700,-1.72,1.28,1.79,47.32,57.77,59.32,56.05
3.720,-1.49,1.16,1.89,47.89,57.59,58.49,56.24
3.740,-1.36,1.13,1.82,47.87,57.11,57.84,56.78
3.760,-1.45,1.14,1.91,48.06,57.41,58.39,55.98
3.780,-1.27,1.13,1.95,48.40,57.34,57.92,56.74
3.800,-1.16,0.86,1.98,48.84,57.41,57.24,56.61
3.820,-0.87,0.86,1.91,49.96,56.92,56.34,57.03
3.840,-0.99,0.73,1.94,49.67,57.29,56.42,56.51
3.860,-0.72,0.74,1.92,50.36,57.11,56.08,57.01
3.880,-0.72,0.91,1.91,49.82,56.68,56.47,57.23
3.900,-0.49,0.72,1.96,50.77,56.28,55.40,57.44
3.920,-0.54,0.74,2.02,50.17,56.54,55.58,57.52
3.940,-0.23,0.55,2.01,51.24,56.45,54.59,57.30
3.960,-0.24,0.52,2.03,51.10,56.54,54.55,57.66
3.980,-0.13,0.57,2.12,51.61,56.39,54.17,57.81
4.000,0.19,0.40,2.01,52.67,55.94,53.55,58.03
4.020,0.08,0.31,1.98,52.61,55.75,53.24,57.63
4.040,0.49,0.26,1.98,53.24,55.62,52.69,58.54
4.060,0.34,0.32,2.00,52.88,55.62,52.95,58.09
4.080,0.43,0.29,2.08,52.96,55.65,52.81,58.50
4.100,0.62,0.20,1.96,53.66,55.30,52.10,58.67
4.120,0.70,0.09,2.07,54.12,55.46,51.90,58.59
4.140,0.96,0.06,2.06,54.52,55.04,51.06,59.24
4.160,1.00,0.04,2.15,55.02,54.88,51.54,59.19
4.180,1.11,-0.05,2.08,54.96,54.95,50.55,59.07
4.200,1.01,0.02,2.19,54.87,55.14,50.51,59.19
4.220,1.13,-0.07,2.19,55.62,55.06,50.15,59.60
4.240,1.26,-0.30,2.11,55.99,54.98,49.62,59.24
4.260,1.48,-0.25,2.15,56.59,54.62,49.45,60.10
4.280,1.49,-0.36,2.21,56.66,54.67,49.23,59.33
4.300,1.75,-0.40,2.17,57.23,54.45,48.50,60.08
4.320,1.80,-0.36,2.12,57.27,54.32,48.48,60.08
4.340,1.76,-0.44,2.18,57.25,54.52,48.49,59.40
4.360,1.82,-0.50,2.29,56.99,54.57,47.78,59.59
4.380,1.88,-0.61,2.17,57.83,54.51,47.83,59.68
4.400,1.89,-0.75,2.07,57.94,54.87,48.00,59.85
4.420,1.82,-0.47,2.21,57.70,54.25,48.51,59.68
4.440,2.11,-0.58,2.26,58.38,54.40,47.55,60.52
4.460,1.95,-0.78,2.19,58.23,55.03,47.30,59.29
4.480,2.00,-0.99,2.30,58.56,55.19,46.85,58.99
4.500,2.01,-0.90,2.24,58.73,54.76,46.83,59.67
4.520,2.07,-0.85,2.27,58.58,54.84,46.82,59.96
4.540,2.00,-0.93,2.28,58.38,55.35,46.76,59.33
4.560,1.97,-1.02,2.28,59.10,55.32,46.56,59.30
4.580,1.81,-1.06,2.31,58.72,55.99,46.61,58.60
4.600,1.85,-1.17,2.37,58.46,55.93,46.52,58.87
4.620,1.91,-1.02,2.28,58.55,55.41,47.17,59.08
4.640,1.87,-1.02,2.30,58.75,55.73,47.08,59.07
4.660,1.68,-1.21,2.34,58.76,56.75,46.52,58.06
4.680,1.70,-1.15,2.34,58.43,56.36,47.16,58.04
4.700,1.58,-1.12,2.41,58.06,56.12,47.19,57.88
4.720,1.53,-1.26,2.31,58.14,56.99,47.02,57.63
4.740,1.62,-1.20,2.37,58.30,56.66,47.23,58.30
4.760,1.46,-1.47,2.38,58.25,57.49,46.77,57.16
4.780,1.26,-1.35,2.41,57.63,57.51,47.37,57.46
4.800,1.17,-1.41,2.45,57.99,58.00,47.16,57.15
4.820,1.06,-1.48,2.32,57.76,58.08,47.55,56.24
4.840,1.09,-1.36,2.41,57.43,57.65,47.30,56.98
4.860,0.80,-1.55,2.38,57.29,58.85,47.99,56.03
4.880,0.61,-1.41,2.49,56.30,58.97,48.35,55.76
4.900,0.46,-1.35,2.49,56.18,59.52,48.56,55.86
4.920,0.59,-1.35,2.38,56.41,58.83,48.62,56.03
4.940,0.39,-1.55,2.46,56.23,59.71,48.46,55.36
4.960,0.35,-1.34,2.53,55.57,59.69,49.13,55.41
4.980,0.33,-1.49,2.53,55.70,59.71,48.72,54.82
5.000,-0.14,-1.60,2.50,55.33,61.12,49.40,54.04
5.020,-0.03,-1.41,2.51,55.28,60.77,49.77,54.64
5.040,-0.11,-1.53,2.54,55.57,61.18,49.70,54.20
5.060,-0.44,-1.50,2.53,54.56,61.27,50.07,53.65
5.080,-0.45,-1.49,2.57,54.59,61.66,50.22,54.00
5.100,-0.59,-1.64,2.49,54.45,62.24,50.72,52.96
5.120,-0.71,-1.50,2.58,54.10,62.01,50.68,52.91
5.140,-0.75,-1.50,2.65,54.08,61.81,50.70,52.99
5.160,-0.87,-1.39,2.63,53.14,62.29,51.56,53.21
5.180,-1.03,-1.54,2.53,53.62,62.56,51.19,52.25
5.200,-1.19,-1.44,2.62,52.72,62.79,51.74,52.38
5.220,-1.36,-1.54,2.57,52.74,63.65,52.14,52.05
5.240,-1.43,-1.37,2.63,51.98,63.01,52.37,52.23
5.260,-1.37,-1.17,2.59,52.41,62.89,52.28,52.74
5.280,-1.66,-1.40,2.61,51.85,63.82,52.85,51.62
5.300,-1.49,-1.26,2.66,52.27,63.30,52.86,52.13
5.320,-1.85,-1.25,2.64,50.80,63.75,53.78,51.42
5.340,-1.67,-1.40,2.62,51.72,63.56,52.94,51.43
5.360,-1.94,-1.08,2.66,50.46,63.48,53.92,51.43
5.380,-1.87,-1.10,2.68,50.80,63.56,53.85,52.05
5.400,-1.97,-1.08,2.68,50.94,63.49,54.51,51.75
5.420,-2.10,-1.04,2.73,49.92,64.05,54.55,51.62
5.440,-2.10,-1.19,2.64,50.53,64.16,54.23,50.96
5.460,-2.13,-0.86,2.77,49.28,63.59,54.84,51.75
5.480,-2.15,-0.81,2.69,49.63,63.47,55.16,51.91
5.500,-1.95,-0.71,2.76,49.64,63.07,54.32,52.54
5.520,-1.91,-0.88,2.79,50.30,62.91,54.43,52.21
5.540,-2.10,-0.67,2.70,49.37,62.99,55.38,52.19
5.560,-2.08,-0.74,2.68,49.57,63.50,54.93,51.94
5.580,-1.88,-0.59,2.78,49.74,62.36,54.85,52.84
5.600,-1.77,-0.51,2.87,49.65,62.29,54.93,53.40
5.620,-1.95,-0.47,2.84,49.31,62.49,55.08,52.73
5.640,-1.81,-0.37,2.83,49.37,62.15,54.94,52.93
5.660,-1.65,-0.27,2.89,49.05,61.92,54.88,53.76
5.680,-1.79,-0.29,2.87,49.05,62.06,54.96,53.61
5.700,-1.69,-0.42,2.89,49.83,61.64,54.71,53.49
5.720,-1.49,-0.37,2.89,49.52,61.56,54.21,54.35
5.740,-1.44,-0.29,2.90,49.51,61.27,54.51,54.46
5.760,-1.59,-0.28,2.91,49.21,61.54,54.91,54.05
5.780,-1.44,-0.23,2.81,49.81,61.12,54.25,54.31
5.800,-1.25,-0.02,2.80,49.86,60.29,55.03,55.21
5.820,-1.06,-0.12,3.01,50.35,60.43,53.70,55.81
5.840,-1.08,-0.09,2.86,49.95,60.65,54.42,55.00
5.860,-0.95,0.17,2.93,49.92,60.10,54.59,55.97
5.880,-0.79,0.08,2.97,50.00,59.69,53.44,56.48
5.900,-0.73,0.17,2.99,50.05,59.19,53.77,56.75
5.920,-0.51,0.16,2.92,51.06,58.60,53.46,56.72
5.940,-0.39,0.16,2.96,50.80,58.25,53.16,57.67
5.960,-0.33,0.46,3.00,50.22,57.86,53.59,58.40
5.980,-0.01,0.44,3.00,51.16,57.12,52.63,58.83
6.000,0.07,0.40,3.05,51.50,57.05,52.72,58.98
6.020,0.10,0.34,3.10,51.30,57.56,52.01,58.62
6.040,0.29,0.58,2.94,51.82,56.01,52.93,59.76
6.060,0.29,0.74,3.07,51.10,56.09,52.68,59.91
6.080,0.51,0.65,2.98,51.91,55.82,52.08,60.10
6.100,0.64,0.85,3.08,51.27,55.26,52.26,61.03
6.120,0.77,0.72,2.97,51.88,54.83,51.66,60.84
6.140,0.82,0.69,3.06,51.95,54.75,51.70,60.72
6.160,1.04,0.94,3.11,52.36,53.85,51.99,62.39
6.180,1.09,0.91,3.05,52.06,54.11,51.13,62.34
6.200,1.04,0.89,3.09,51.67,54.30,51.42,61.70
6.220,1.31,0.94,3.11,52.45,53.74,51.29,62.78
6.240,1.48,1.07,3.09,52.77,52.68,51.15,63.39
6.260,1.30,1.03,3.11,52.53,53.29,51.41,62.88
6.280,1.69,1.06,3.11,53.47,52.73,50.54,63.51
6.300,1.62,1.24,3.13,52.25,52.10,51.01,63.89
6.320,1.66,1.05,3.08,53.04,52.63,50.62,63.50
6.340,1.79,1.38,3.21,53.01,51.80,50.89,64.44
6.360,1.67,1.22,3.09,52.88,52.33,51.17,63.72
6.380,1.91,1.19,3.17,53.04,51.78,50.36,64.46
6.400,2.01,1.62,3.24,52.64,50.66,50.97,65.56
6.420,1.95,1.38,3.21,52.74,51.62,51.05,65.03
6.440,1.88,1.54,3.25,52.36,51.46,51.15,64.96
6.460,1.82,1.29,3.18,52.94,51.82,50.56,64.36
6.480,2.08,1.44,3.26,52.80,51.09,50.25,65.20
6.500,2.05,1.38,3.35,52.97,51.76,50.59,65.09
6.520,1.88,1.46,3.22,53.00,51.57,51.04,64.89
6.540,1.96,1.45,3.25,52.59,51.45,50.88,65.03
6.560,1.93,1.58,3.26,52.66,51.22,50.92,65.45
6.580,1.85,1.47,3.28,52.77,51.46,51.07,64.78
6.600,1.89,1.78,3.24,51.91,50.86,51.77,65.80
6.620,1.94,1.31,3.27,52.97,52.21,50.54,64.48
6.640,1.85,1.55,3.27,52.17,51.61,51.44,65.15
6.660,1.64,1.43,3.40,52.14,52.14,51.17,64.80
6.680,1.71,1.48,3.35,52.01,52.06,51.29,64.45
6.700,1.68,1.39,3.37,52.04,52.03,50.87,64.66
6.720,1.66,1.49,3.39,52.20,51.94,51.29,64.42
6.740,1.30,1.38,3.37,51.34,52.55,51.77,63.94
6.760,1.22,1.55,3.35,50.93,52.91,52.39,63.60
6.780,1.20,1.28,3.44,51.33,53.59,51.80,63.69
6.800,1.36,1.58,3.32,51.40,52.09,52.32,64.20
6.820,1.17,1.40,3.37,51.13,53.08,52.44,63.27
6.840,0.86,1.35,3.44,51.06,53.93,52.79,62.47
6.860,0.79,1.46,3.37,49.98,53.74,52.83,62.87
6.880,0.64,1.40,3.40,50.20,54.31,53.11,62.40
6.900,0.57,1.33,3.43,50.01,54.63,53.24,61.84
6.920,0.47,1.43,3.41,49.73,54.57,53.72,62.50
6.940,0.35,1.33,3.51,49.65,54.94,53.44,62.09
6.960,0.23,1.34,3.51,49.25,55.47,53.54,61.43
6.980,0.01,1.36,3.61,48.59,56.15,54.18,61.28
7.000,-0.22,1.15,3.52,48.93,56.50,53.92,60.17
7.020,-0.05,1.21,3.45,49.00,55.83,54.14,60.67
7.040,-0.31,1.26,3.60,48.21,56.98,54.39,60.19
7.060,-0.44,0.97,3.52,48.48,57.48,54.28,59.58
7.080,-0.58,0.89,3.48,48.49,57.62,54.08,59.19
7.100,-0.58,1.01,3.59,48.20,57.73,54.53,59.68
7.120,-0.59,0.73,3.54,48.38,58.55,54.00,58.79
7.140,-0.74,1.17,3.66,47.54,57.70,55.22,59.25
7.160,-0.97,0.88,3.63,47.86,58.60,55.22,58.39
7.180,-1.14,0.87,3.59,47.51,59.20,55.63,57.72
7.200,-1.23,0.78,3.61,47.11,59.36,55.25,57.69
7.220,-1.22,0.73,3.61,47.48,59.69,55.36,57.98
7.240,-1.35,0.77,3.72,47.26,59.94,55.56,57.33
7.260,-1.42,0.48,3.61,47.60,60.70,55.14,56.30
7.280,-1.54,0.61,3.71,47.12,60.33,55.59,57.01
7.300,-1.49,0.65,3.72,46.98,60.52,55.26,57.04
7.320,-1.59,0.29,3.74,47.35,61.25,54.81,56.53
7.340,-1.93,0.48,3.56,46.62,61.39,56.46,55.68
7.360,-1.72,0.39,3.72,47.04,61.28,55.57,55.69
7.380,-2.04,0.03,3.68,47.24,62.81,55.68,54.42
7.400,-1.98,0.42,3.69,46.66,61.52,55.92,54.96
7.420,-2.00,0.24,3.65,46.54,61.78,55.93,55.10
7.440,-1.85,0.23,3.79,47.17,62.04,55.74,55.34
7.460,-1.98,0.21,3.73,47.02,62.32,55.37,55.25
7.480,-2.18,-0.01,3.81,46.79,63.15,55.41,54.27
7.500,-2.20,-0.20,3.73,47.13,63.36,55.06,53.52
7.520,-2.05,-0.09,3.78,47.53,63.38,54.84,54.60
7.540,-1.93,-0.09,3.81,47.64,62.65,54.86,54.73
7.560,-1.70,-0.26,3.81,48.42,62.48,54.21,54.99
7.580,-1.84,-0.32,3.79,48.29,63.13,54.43,54.81
7.600,-1.96,-0.27,3.73,48.05,63.20,54.58,53.77
7.620,-1.84,-0.44,3.85,48.24,63.54,54.01,54.02
7.640,-1.76,-0.53,3.81,48.75,63.39,53.99,54.31
7.660,-1.69,-0.36,3.82,48.20,63.02,53.74,54.55
7.680,-1.78,-0.52,3.87,48.40,63.58,53.69,54.39
7.700,-1.71,-0.68,3.88,48.93,63.45,53.00,54.29
7.720,-1.60,-0.61,3.83,49.24,63.11,53.08,54.79
7.740,-1.57,-0.65,3.77,49.73,63.13,52.91,54.64
7.760,-1.37,-0.72,3.92,49.53,63.01,52.26,54.81
7.780,-1.32,-0.83,3.86,50.23,63.35,51.99,54.44
7.800,-1.40,-0.73,3.94,49.68,63.27,52.41,54.58
7.820,-1.04,-0.89,3.90,51.05,62.97,51.29,55.13
7.840,-1.05,-1.13,3.91,51.28,63.42,50.92,54.50
7.860,-0.91,-0.98,3.88,51.27,62.70,51.01,54.57
7.880,-0.97,-0.96,3.89,50.70,62.73,50.78,55.33
7.900,-0.63,-1.04,3.87,51.97,61.97,50.30,55.07
7.920,-0.72,-1.03,3.95,51.73,62.34,50.46,55.48
7.940,-0.56,-1.27,3.93,52.38,62.45,49.72,54.98
7.960,-0.36,-1.22,4.02,52.83,62.46,49.45,55.96
7.980,-0.06,-1.18,3.93,53.22,61.63,49.08,56.40
8.000,0.03,-1.18,3.99,53.39,61.61,48.71,56.52
8.020,0.33,-1.31,4.00,54.13,60.97,47.89,56.87
8.040,0.21,-1.46,3.97,54.51,61.31,47.84,56.44
8.060,0.39,-1.14,4.03,54.07,60.69,47.89,57.45
8.080,0.46,-1.14,4.01,54.49,60.43,47.62,58.05
8.100,0.73,-1.46,4.07,55.35,60.63,46.19,57.71
8.120,0.86,-1.36,4.03,55.40,60.08,46.63,57.78
8.140,1.01,-1.43,4.11,55.65,59.74,46.40,58.17
8.160,1.04,-1.34,4.05,55.72,59.55,45.82,58.48
8.180,0.89,-1.38,4.07,55.84,60.19,46.30,58.00
8.200,1.17,-1.47,4.07,56.15,59.35,45.82,58.31
8.220,1.29,-1.34,4.12,56.27,59.25,45.57,59.22
8.240,1.35,-1.58,4.15,56.59,59.91,45.35,58.59
8.260,1.51,-1.38,4.08,56.66,59.17,45.18,59.23
8.280,1.61,-1.29,4.10,57.00,58.43,45.24,59.83
8.300,1.47,-1.59,4.22,56.89,59.24,44.51,58.97
8.320,1.70,-1.61,4.17,57.53,58.97,44.36,59.21
8.340,1.77,-1.52,4.09,57.46,58.69,44.04,59.27
8.360,1.67,-1.43,4.09,57.21,58.65,44.48,59.57
8.380,1.93,-1.57,4.19,57.68,58.62,43.59,59.61
8.400,1.80,-1.43,4.25,57.06,58.58,44.25,59.92
8.420,1.90,-1.36,4.16,57.24,58.34,44.49,60.08
8.440,1.95,-1.45,4.17,57.68,57.78,43.87,60.21
8.460,1.84,-1.55,4.24,57.62,59.16,43.75,59.47
8.480,2.05,-1.38,4.26,57.63,57.76,43.70,60.90
8.500,1.84,-1.62,4.26,57.46,58.80,43.77,59.66
8.520,2.10,-1.35,4.29,57.81,57.33,44.03,60.61
8.540,1.97,-1.37,4.36,57.48,58.21,43.99,60.67
8.560,1.97,-1.36,4.32,57.74,58.25,43.94,60.25
8.580,1.95,-1.20,4.32,56.76,57.72,44.10,60.82
8.600,1.91,-1.21,4.27,56.82,58.31,44.40,60.88
8.620,1.69,-1.36,4.32,57.07,58.27,44.51,59.76
8.640,1.71,-1.15,4.30,56.43,58.31,44.81,60.67
8.660,1.75,-1.17,4.40,56.66,58.44,44.59,60.75
8.680,1.77,-1.35,4.32,56.95,58.54,44.69,60.03
8.700,1.70,-1.12,4.36,56.24,58.05,45.15,60.61
8.720,1.74,-1.10,4.34,56.37,58.08,44.87,60.28
8.740,1.41,-1.10,4.32,55.82,58.41,45.82,59.96
8.760,1.40,-1.01,4.35,55.50,58.52,46.00,60.18
8.780,1.21,-1.12,4.35,55.26,59.23,45.84,59.38
8.800,0.99,-1.01,4.45,54.53,60.06,46.48,59.29
8.820,0.83,-1.12,4.40,54.17,59.93,46.72,58.55
8.840,0.94,-0.96,4.42,54.63,59.33,46.85,59.34
8.860,0.89,-1.02,4.55,54.48,60.30,46.52,59.30
8.880,0.82,-0.71,4.41,53.56,58.92,47.84,59.96
8.900,0.69,-0.84,4.39,53.95,59.89,47.52,59.14
8.920,0.42,-0.67,4.37,52.71,59.78,48.38,58.78
8.940,0.37,-0.63,4.45,52.46,59.82,48.61,58.80
8.960,0.19,-0.50,4.44,52.09,60.32,49.21,58.44
8.980,0.06,-0.48,4.51,51.36,60.57,49.25,58.34
9.000,-0.06,-0.57,4.63,51.40,60.73,49.10,58.41
9.020,-0.14,-0.35,4.46,50.95,60.71,50.32,58.15
9.040,-0.30,-0.34,4.53,50.50,60.69,50.52,58.02
9.060,-0.43,-0.08,4.44,49.80,60.03,50.92,57.95
9.080,-0.43,-0.41,4.60,50.38,60.89,50.46,58.08
9.100,-0.71,-0.20,4.58,49.51,61.43,51.63,57.75
9.120,-0.78,-0.32,4.52,49.79,61.85,51.21,57.51
9.140,-0.62,-0.05,4.60,49.20,60.88,52.07,58.61
9.160,-0.97,0.13,4.58,47.94,61.18,52.69,58.15
9.180,-0.87,0.07,4.63,48.35,61.32,52.06,58.14
9.200,-1.24,0.15,4.61,47.40,61.99,53.21,57.54
9.220,-1.26,0.14,4.63,47.59,62.03,53.06,57.23
9.240,-1.26,0.12,4.57,47.64,61.60,52.99,57.30
9.260,-1.18,0.40,4.66,47.43,61.28,53.65,57.92
9.280,-1.63,0.25,4.60,46.71,62.48,54.22,56.88
9.300,-1.52,0.26,4.60,47.07,61.79,53.85,56.64
9.320,-1.56,0.48,4.56,46.34,61.86,54.28,57.37
9.340,-1.78,0.52,4.67,45.60,62.13,55.12,57.29
9.360,-1.75,0.68,4.69,45.60,62.15,55.21,57.72
9.380,-1.95,0.55,4.68,45.42,62.67,55.15,56.74
9.400,-2.01,0.64,4.69,44.99,62.73,55.35,57.04
9.420,-2.09,0.61,4.88,44.94,62.58,55.60,56.94
9.440,-1.93,0.75,4.70,45.18,62.15,55.43,57.23
9.460,-1.95,0.75,4.66,44.67,61.89,55.65,56.99
9.480,-1.92,0.91,4.62,44.48,61.66,56.17,57.75
9.500,-2.02,0.96,4.72,44.68,62.02,56.54,57.63
9.520,-2.05,1.08,4.74,43.92,61.69,56.22,57.72
9.540,-2.02,0.84,4.80,44.88,62.16,56.08,57.52
9.560,-1.88,1.12,4.83,43.90,61.60,55.80,58.03
9.580,-1.96,1.06,4.75,44.38,61.66,56.31,57.84
9.600,-1.97,1.08,4.78,43.94,61.47,56.01,57.87
9.620,-1.86,1.18,4.86,43.95,61.33,55.85,58.62
9.640,-1.78,1.06,4.83,44.01,61.16,55.78,58.48
9.660,-1.76,1.15,4.80,44.45,60.65,55.54,58.99
9.680,-1.65,1.02,4.88,44.82,61.07,55.24,58.53
9.700,-1.50,1.40,4.81,44.31,59.87,56.32,59.64
9.720,-1.63,1.25,4.90,44.31,60.49,55.87,58.89
9.740,-1.33,1.43,4.90,44.57,59.58,55.57,60.18
9.760,-1.39,1.29,4.94,44.88,60.54,55.45,59.47
9.780,-1.23,1.46,4.86,44.92,59.25,55.43,60.47
9.800,-1.18,1.61,4.86,44.81,59.26,55.57,60.77
9.820,-1.12,1.42,4.86,45.19,59.05,55.18,60.46
9.840,-0.98,1.41,4.89,45.00,58.61,54.93,60.82
9.860,-0.90,1.38,4.84,45.51,58.97,54.62,60.75
9.880,-0.61,1.65,4.98,45.66,57.81,54.47,62.19
9.900,-0.63,1.53,5.01,45.92,58.26,54.40,61.77
9.920,-0.56,1.66,5.01,45.65,57.96,54.43,62.31
9.940,-0.28,1.26,5.00,46.80,57.85,53.10,62.19
9.960,-0.19,1.53,4.96,46.71,57.11,53.95,62.42
9.980,-0.16,1.46,4.96,46.52,57.22,53.26,62.33
